ID;wellNumber;wellName;wellType;field_ID;spudDate;totalDepthMD;totalDepthTVD;wellboreType;surfaceLatitude;surfaceLongitude;s4WBSElement;status;isActive
55555555-5555-5555-5555-555555555501;API-42-123-00001;Permian Well Alpha-1;Development;44444444-4444-4444-4444-444444444401;2025-01-15;3500.00;3200.00;Horizontal;31.8457;-102.3676;WBS-PERM-001;Drilling;true
55555555-5555-5555-5555-555555555502;API-42-123-00002;Permian Well Alpha-2;Development;44444444-4444-4444-4444-444444444401;2025-02-01;4200.00;3800.00;Horizontal;31.8523;-102.3712;WBS-PERM-002;Planned;true
55555555-5555-5555-5555-555555555503;API-42-123-00003;Permian Well Beta-1;Exploration;44444444-4444-4444-4444-444444444402;2024-11-10;5000.00;4500.00;Vertical;31.7892;-102.4123;WBS-PERM-003;Completed;true
55555555-5555-5555-5555-555555555504;API-42-456-00001;GOM Deepwater Discovery;Exploration;44444444-4444-4444-4444-444444444403;2025-03-01;6500.00;6000.00;Directional;28.1234;-89.5678;WBS-GOM-001;Planned;true
55555555-5555-5555-5555-555555555505;UK-NS-001;North Sea Platform A-1;Development;44444444-4444-4444-4444-444444444404;2024-09-15;4000.00;3700.00;Directional;57.5432;1.2345;WBS-NS-001;Completed;true
55555555-5555-5555-5555-555555555506;NO-NCS-001;Troll Field Extension;Development;44444444-4444-4444-4444-444444444405;2025-04-01;3800.00;3500.00;Horizontal;60.6543;3.8765;WBS-NCS-001;Planned;true
55555555-5555-5555-5555-555555555507;SA-GW-001;Ghawar Infill Well 1;Workover;44444444-4444-4444-4444-444444444406;2025-01-20;2500.00;2400.00;Vertical;25.3456;49.1234;WBS-GW-001;Drilling;true
55555555-5555-5555-5555-555555555508;AU-NWS-001;Northwest Shelf Gas Well;Development;44444444-4444-4444-4444-444444444407;2024-12-01;4500.00;4200.00;Horizontal;-19.5678;116.7890;WBS-NWS-001;Completed;true
